city name,lat,lon,temp,humidity,cloudiness,wind speed
budhlada,29.9333,75.5667,301.09,44,overcast clouds,4.59
severo-kurilsk,50.6789,156.125,283.67,56,clear sky,3.3
mataura,-46.1927,168.8643,284.53,98,light rain,3.49
upernavik,72.7868,-56.1549,273.29,77,overcast clouds,3.42
kungurtug,50.5994,97.5228,283.72,75,overcast clouds,1.59
kapaa,22.0752,-159.319,302.14,77,light rain,1.79
luwuk,-0.9516,122.7875,301.81,71,scattered clouds,2.72
hermanus,-34.4187,19.2345,287.54,63,clear sky,1.67
santa isabel,-23.3156,-46.2214,290.57,93,broken clouds,0.96
sorland,67.667,12.6934,278.56,88,overcast clouds,10.93
baker city,44.7749,-117.8344,287.37,35,clear sky,6.17
tual,-5.6667,132.75,301.46,79,overcast clouds,8.59
atar,20.5169,-13.0499,304.95,17,clear sky,6.28
port-gentil,-0.7193,8.7815,300.19,77,overcast clouds,1.94
hasaki,35.7333,140.8333,290.53,90,overcast clouds,3.96
qaanaaq,77.484,-69.3632,273.49,95,snow,4.26
ancud,-41.8697,-73.8203,284.5,65,overcast clouds,4.89
punta arenas,-53.15,-70.9167,279.21,89,overcast clouds,1.84
abashiri,44.0213,144.2697,292.31,61,few clouds,5.26
prachin buri,14.0833,101.6667,302.37,76,overcast clouds,1.0
kaitangata,-46.2817,169.8464,286.44,94,overcast clouds,4.72
araouane,18.9048,-3.5265,309.62,13,scattered clouds,4.43
bethel,41.3712,-73.414,295.94,74,overcast clouds,2.2
faanui,-16.4833,-151.75,301.03,73,few clouds,9.66
fortuna,40.5982,-124.1573,293.25,62,overcast clouds,4.02
ribeira grande,38.5167,-28.7,291.61,92,overcast clouds,9.92
praia da vitoria,38.7333,-27.0667,293.29,83,few clouds,8.42
rikitea,-23.1203,-134.9692,296.85,63,clear sky,7.94
bakal,54.9417,58.8083,283.51,86,few clouds,2.51
tuatapere,-46.1333,167.6833,284.72,94,overcast clouds,4.39
nyurba,63.2842,118.3319,276.93,30,broken clouds,1.49
albany,42.6001,-73.9662,296.51,75,overcast clouds,2.65
vaini,-21.2,-175.2,300.24,83,scattered clouds,3.09
miri,4.4148,114.0089,301.23,83,scattered clouds,1.85
yellowknife,62.456,-114.3525,276.44,38,scattered clouds,6.17
arraial do cabo,-22.9661,-42.0278,295.34,69,broken clouds,5.73
santarem,-2.4431,-54.7083,298.22,94,clear sky,2.06
new norfolk,-42.7826,147.0587,288.52,70,overcast clouds,2.68
port alfred,-33.5906,26.891,292.68,37,overcast clouds,5.46
vila franca do campo,37.7167,-25.4333,292.38,95,overcast clouds,3.52
cape town,-33.9258,18.4232,287.66,67,clear sky,3.11
bletchley,51.9933,-0.7347,283.37,97,overcast clouds,3.33
san cristobal,7.7669,-72.225,295.25,94,scattered clouds,1.07
fairbanks,64.8378,-147.7164,290.13,31,broken clouds,5.66
ushuaia,-54.8,-68.3,280.96,93,light rain,2.06
muli,2.9167,73.5667,301.7,74,clear sky,4.28
iqaluit,63.7506,-68.5145,269.0,62,broken clouds,6.71
avarua,-21.2078,-159.775,300.18,89,broken clouds,6.17
xining,36.6167,101.7667,283.4,52,clear sky,1.6
hutchinson,38.0608,-97.9298,292.23,87,overcast clouds,3.09
kruisfontein,-34.0033,24.7314,290.52,29,clear sky,5.1
thunder bay,48.4001,-89.3168,290.14,59,clear sky,5.14
vedea,43.7833,25.7833,287.01,69,clear sky,6.66
ponta do sol,32.6667,-17.1,292.99,67,clear sky,2.06
chapais,49.7834,-74.8492,286.03,83,overcast clouds,3.18
den helder,52.9599,4.7593,283.16,93,scattered clouds,2.57
nikolayevka,53.1257,47.2041,289.57,65,broken clouds,3.12
mahebourg,-20.4081,57.7,294.96,79,light rain,3.53
mildura,-34.2,142.15,288.13,55,overcast clouds,3.09
westport,41.1415,-73.3579,297.01,55,broken clouds,3.41
arkhipo-osipovka,44.37,38.52,287.51,97,heavy intensity rain,7.32
east london,-33.0153,27.9116,293.19,34,clear sky,3.9
meulaboh,4.1363,96.1285,298.9,79,overcast clouds,2.17
skerries,53.5828,-6.1083,281.58,88,clear sky,6.09
ucluelet,48.9329,-125.5528,285.95,72,clear sky,0.89
angoche,-16.2325,39.9086,296.51,69,clear sky,5.68
lerik,38.7726,48.4128,283.95,69,clear sky,2.16
colares,38.7992,-9.4469,288.31,78,scattered clouds,7.6
kahului,20.8947,-156.47,302.16,61,scattered clouds,11.32
lydenburg,-25.0978,30.4597,283.37,93,clear sky,0.31
cockburn town,21.4612,-71.1419,300.13,74,broken clouds,3.6
tessalit,20.1986,1.0114,307.78,8,overcast clouds,1.94
kuytun,54.3419,101.5036,280.65,71,overcast clouds,1.9
hualmay,-11.0964,-77.6139,290.86,90,clear sky,3.53
bredasdorp,-34.5322,20.0403,280.77,72,broken clouds,1.39
lata,40.1629,-8.3327,285.96,97,overcast clouds,1.23
karratha,-20.7377,116.8463,298.07,51,clear sky,5.72
dikson,73.5069,80.5464,264.67,96,overcast clouds,1.92
barrow,71.2906,-156.7887,272.16,86,overcast clouds,1.54
san patricio,28.017,-97.5169,301.38,89,broken clouds,6.27
puerto ayora,-0.7393,-90.3518,297.34,87,overcast clouds,2.68
zacapu,19.8333,-101.7167,296.68,41,clear sky,2.61
ajaccio,42.0,8.9167,290.18,93,overcast clouds,0.48
bengkulu,-3.8004,102.2655,297.5,85,scattered clouds,1.86
verkhoyansk,67.5447,133.385,275.37,94,light rain,4.02
ouallam,14.3188,2.0866,306.78,23,clear sky,4.75
acarau,-2.8856,-40.12,298.51,87,overcast clouds,3.88
devonport,-41.1667,146.35,287.6,69,overcast clouds,4.98
provideniya,64.3833,-173.3,273.21,93,overcast clouds,7.0
kodiak,57.79,-152.4072,282.88,76,clear sky,3.6
longyearbyen,78.2186,15.6401,270.06,68,few clouds,6.17
haines junction,60.7522,-137.5108,287.12,35,overcast clouds,1.03
port elizabeth,-33.918,25.5701,284.31,66,clear sky,1.54
san carlos de bariloche,-41.1456,-71.3082,275.01,66,clear sky,1.3
thompson,55.7435,-97.8558,277.24,81,overcast clouds,6.69
rongcheng,30.634,117.8517,291.99,97,light rain,0.92
souillac,-20.5167,57.5167,295.02,82,light rain,2.94
upington,-28.4478,21.2561,294.36,24,clear sky,5.14
nagyszenas,46.6833,20.6667,284.16,86,overcast clouds,3.42
maltahohe,-24.8333,16.9833,288.06,39,clear sky,1.32
caravelas,-17.7125,-39.2481,294.91,79,overcast clouds,1.85
peniche,39.3558,-9.3811,287.65,73,overcast clouds,9.48
santa cruz de la palma,28.6835,-17.7642,293.23,83,few clouds,5.66
zhoucheng,35.9122,116.3117,297.6,49,overcast clouds,5.06
khapa,21.4333,78.9667,298.12,58,overcast clouds,5.73
newport,51.5877,-2.9984,283.07,87,overcast clouds,1.99
eureka,40.8021,-124.1637,290.75,72,overcast clouds,4.02
panaytayon,9.95,123.9833,302.12,77,overcast clouds,4.25
bulgan,48.8125,103.5347,288.53,40,broken clouds,6.11
hobart,-42.8794,147.3294,288.72,64,broken clouds,1.79
busselton,-33.65,115.3333,287.64,71,overcast clouds,1.32
egvekinot,66.3167,-179.1667,270.95,97,overcast clouds,2.2
kieta,-6.2167,155.6333,303.77,64,light rain,3.08
alofi,-19.0595,-169.9187,302.09,74,scattered clouds,5.66
angoram,-4.0625,144.0661,304.72,61,broken clouds,1.43
narsaq,60.9167,-46.05,279.27,66,few clouds,1.9
hilo,19.7297,-155.09,299.0,70,broken clouds,4.63
katsuura,35.1333,140.3,292.7,94,overcast clouds,2.31
nikolskoye,59.7035,30.7861,289.09,96,light rain,2.24
tuktoyaktuk,69.4541,-133.0374,277.15,70,few clouds,5.14
kavaratti,10.5669,72.642,301.6,75,overcast clouds,4.84
bambous virieux,-20.3428,57.7575,294.94,78,light rain,3.78
najran,17.4924,44.1277,298.51,42,overcast clouds,0.82
asau,46.4333,26.4,285.66,87,overcast clouds,4.23
watertown,42.3709,-71.1828,297.51,49,clear sky,2.16
kuala terengganu,5.3302,103.1408,298.12,94,light rain,1.54
dalvik,65.9702,-18.5286,274.11,73,overcast clouds,1.51
coronado,32.6859,-117.1831,299.23,72,few clouds,4.63
ostrovnoy,68.0531,39.5131,286.68,95,overcast clouds,6.33
saint-georges,12.0564,-61.7485,300.97,78,few clouds,7.2
kem,64.9555,34.5793,286.4,97,overcast clouds,2.78
ayan,56.45,138.1667,273.68,97,overcast clouds,2.46
russell,32.3502,-85.1999,299.75,57,overcast clouds,4.85
vanimo,-2.6741,141.3028,302.3,73,broken clouds,2.67
kavieng,-2.5744,150.7967,302.79,68,overcast clouds,2.18
rio frio,19.35,-98.6667,288.27,59,broken clouds,1.37
torbay,47.6666,-52.7314,277.53,97,overcast clouds,1.54
soyo,-6.1349,12.3689,299.5,84,few clouds,1.91
port hedland,-20.3167,118.5667,296.18,31,broken clouds,4.63
dejen,10.1667,38.1333,288.78,52,overcast clouds,0.24
kunya,12.2233,8.5325,301.24,38,clear sky,4.62
beyneu,45.3167,55.2,297.84,21,overcast clouds,5.39
jalingo,8.8833,11.3667,298.39,75,overcast clouds,1.78
presidente epitacio,-21.7633,-52.1156,291.58,42,clear sky,2.89
mar del plata,-38.0023,-57.5575,286.0,50,few clouds,1.54
lasem,-6.6922,111.4527,300.28,76,overcast clouds,2.98
lebu,-37.6167,-73.65,287.35,78,overcast clouds,9.69
khatanga,71.9667,102.5,268.86,94,light snow,4.21
comodoro rivadavia,-45.8667,-67.5,283.07,71,clear sky,2.57
cabo san lucas,22.8909,-109.9124,305.27,57,clear sky,8.75
evensk,61.95,159.2333,274.06,99,light rain,2.91
lompoc,34.6391,-120.4579,300.13,67,clear sky,9.26
swan hill,-35.3378,143.5544,289.4,47,broken clouds,3.68
avera,33.194,-82.5271,299.08,63,overcast clouds,3.53
fukue,32.6881,128.8419,292.35,82,broken clouds,2.57
salalah,17.0151,54.0924,302.2,79,broken clouds,1.03
nykoping,58.753,17.0079,283.07,81,clear sky,2.57
teya,60.3778,92.6267,275.34,55,few clouds,2.63
bobrovskiy,56.6732,60.9807,284.24,83,overcast clouds,2.58
khilok,51.3674,110.4676,279.19,84,overcast clouds,0.5
leon valley,29.4952,-98.6186,297.57,84,overcast clouds,1.34
nevers,46.9167,3.3333,281.88,99,overcast clouds,2.18
kondagaon,19.6,81.6667,299.14,72,broken clouds,3.04
nanning,22.8167,108.3167,299.4,70,scattered clouds,5.99
bluff,-46.6,168.3333,284.71,92,overcast clouds,10.78
coffs harbour,-30.3,153.1333,292.13,59,clear sky,2.57
shakhtinsk,49.71,72.5872,287.46,71,overcast clouds,3.51
masuda,34.6667,131.85,293.9,82,broken clouds,2.06
constitucion,-35.3333,-72.4167,287.25,89,overcast clouds,6.13
isla mujeres,21.2311,-86.731,302.18,88,overcast clouds,4.92
jamestown,42.097,-79.2353,296.77,39,clear sky,2.06
butaritari,3.0707,172.7902,300.8,80,moderate rain,4.25
imperial beach,32.5839,-117.1131,299.22,73,few clouds,3.09
bathsheba,13.2167,-59.5167,300.49,67,scattered clouds,6.81
mama,58.3106,112.8986,275.93,54,overcast clouds,4.35
vanavara,60.34,102.2797,274.17,46,few clouds,3.75
qaqortoq,60.7167,-46.0333,279.43,67,clear sky,3.55
raga,8.4596,25.678,295.75,89,overcast clouds,1.82
portland,45.5234,-122.6762,291.27,64,broken clouds,0.45
roela,59.1667,26.5926,286.1,99,light rain,2.84
broken hill,-31.95,141.4333,285.99,62,broken clouds,3.6
shubarshi,48.5872,57.1869,291.1,62,few clouds,1.82
namibe,-15.1961,12.1522,294.84,63,broken clouds,2.74
havre-saint-pierre,50.2334,-63.5986,278.35,100,overcast clouds,4.12
uribia,11.7139,-72.266,302.53,64,overcast clouds,5.29
hithadhoo,-0.6,73.0833,301.92,69,clear sky,3.04
port pirie,-33.1833,138.0167,289.2,34,overcast clouds,4.89
georgetown,5.4112,100.3354,300.87,90,few clouds,1.54
saint-pierre,-21.3393,55.4781,293.97,62,broken clouds,3.09
anadyr,64.75,177.4833,275.43,95,scattered clouds,7.6
tiksi,71.6872,128.8694,272.78,96,overcast clouds,4.87
quatre cocos,-20.2078,57.7625,294.87,79,light rain,4.12
paamiut,61.994,-49.6678,276.35,74,scattered clouds,4.04
sokoni,-6.4333,39.55,299.74,77,overcast clouds,7.11
limoges,45.75,1.3333,281.86,97,overcast clouds,1.22
manggar,-2.8833,108.2667,300.02,82,overcast clouds,4.33
middle island,40.8843,-72.9373,295.46,55,clear sky,0.45
norman wells,65.282,-126.8329,283.17,43,broken clouds,2.06
batagay-alyta,67.8006,130.4114,271.64,91,light snow,5.44
hit,33.6416,42.8251,299.72,22,clear sky,4.42
grindavik,63.8424,-22.4338,278.41,66,clear sky,3.05
annau,37.8876,58.516,293.87,17,clear sky,2.16
omboue,-1.5746,9.2618,297.85,93,light rain,1.84
vestmannaeyjar,63.4427,-20.2734,276.9,92,overcast clouds,3.27
rocha,-34.4833,-54.3333,281.23,91,clear sky,1.81
luderitz,-26.6481,15.1594,290.61,55,overcast clouds,3.29
greece,43.2098,-77.6931,297.1,74,few clouds,3.25
sao filipe,14.8961,-24.4956,297.63,67,overcast clouds,5.35
carnarvon,-24.8667,113.6333,290.19,82,clear sky,2.06
chicama,-7.8447,-79.1469,290.45,79,few clouds,2.44
tilichiki,60.4667,166.1,273.92,98,overcast clouds,2.09
mayo,38.8876,-76.5119,296.38,52,clear sky,3.26
saint-philippe,-21.3585,55.7679,293.92,76,clear sky,3.0
cidreira,-30.1811,-50.2056,286.39,74,clear sky,2.81
jaisalmer,26.9147,70.9181,299.05,56,overcast clouds,4.84
bandarbeyla,9.4942,50.8122,301.34,76,few clouds,8.18
formosa,-26.1775,-58.1781,290.14,94,clear sky,2.06
cascais,38.6979,-9.4215,288.41,73,scattered clouds,7.6
verkhnevilyuysk,63.4453,120.3167,277.35,30,overcast clouds,1.64
airai,-8.9266,125.4092,293.65,67,broken clouds,1.57
zabaykalsk,49.6333,117.3167,288.32,40,overcast clouds,3.77
khorinsk,52.1657,109.7726,283.81,56,broken clouds,2.64
los llanos de aridane,28.6585,-17.9182,291.01,89,few clouds,7.4
ormara,25.2088,64.6357,301.34,84,clear sky,3.08
nuuk,64.1835,-51.7216,276.49,75,few clouds,5.14
padang,-0.9492,100.3543,297.18,81,broken clouds,0.9
texarkana,33.4251,-94.0477,296.3,93,light rain,2.68
niono,14.2526,-5.993,309.98,18,overcast clouds,2.78
shiyan,32.6475,110.7781,291.73,77,moderate rain,1.24
cherskiy,68.75,161.3,280.55,50,broken clouds,5.25
rawson,-43.3002,-65.1023,287.56,72,overcast clouds,9.56
luoyang,34.6836,112.4536,295.75,52,overcast clouds,1.46
port augusta,-32.5,137.7667,289.23,30,overcast clouds,5.22
redmond,47.674,-122.1215,289.62,72,overcast clouds,1.34
rio branco,-9.9747,-67.81,296.49,66,clear sky,0.85
mariental,-24.6333,17.9667,290.57,29,clear sky,3.52
taywarah,33.35,64.4167,281.88,30,clear sky,1.84
coquimbo,-29.9533,-71.3436,287.0,87,overcast clouds,2.58
petrivka,46.9695,30.9591,286.4,87,overcast clouds,4.96
port lincoln,-34.7333,135.8667,290.86,36,overcast clouds,7.61
broome,42.2506,-75.833,295.36,89,clear sky,1.19
leningradskiy,69.3833,178.4167,273.97,91,broken clouds,4.31
saint george,37.1041,-113.5841,307.41,16,clear sky,2.68
havelock,34.8791,-76.9013,294.79,71,clear sky,0.89
leinefelde,51.3833,10.3333,281.75,95,scattered clouds,1.69
katherine,-14.4667,132.2667,299.33,48,clear sky,5.55
behshahr,36.6923,53.5526,293.98,60,clear sky,3.97
oktyabrskoye,43.0645,44.7417,282.23,64,clear sky,2.48
craig,40.5153,-107.5464,297.57,30,scattered clouds,3.6
havoysund,70.9963,24.6622,282.64,94,few clouds,5.51
forestville,38.8451,-76.875,295.89,63,few clouds,2.29
villa carlos paz,-31.4241,-64.4978,288.65,72,overcast clouds,3.58
sola,-13.8833,167.55,300.52,83,broken clouds,6.17
masvingo,-20.0637,30.8277,284.82,91,clear sky,1.76
saldanha,-33.0117,17.9442,280.18,72,clear sky,2.33
campoverde,-8.4753,-74.8058,299.98,93,overcast clouds,0.9
camopi,3.1655,-52.3158,295.49,99,overcast clouds,0.77
laguna,38.421,-121.4238,304.51,33,clear sky,4.02
pevek,69.7008,170.3133,274.0,85,overcast clouds,3.54
yarada,17.65,83.2667,301.33,77,few clouds,5.26
waipawa,-41.4122,175.5153,288.96,56,clear sky,3.49
tingo maria,-9.2895,-76.0088,292.9,98,broken clouds,0.65
atuona,-9.8,-139.0333,299.77,77,overcast clouds,6.08
santo domingo,18.5001,-69.9886,300.95,76,broken clouds,0.45
kabompo,-13.5927,24.2008,287.13,66,clear sky,2.11
tabou,4.423,-7.3528,298.71,89,light rain,2.75
micheweni,-4.9667,39.8333,298.64,82,overcast clouds,5.78
hofn,64.2539,-15.2082,275.12,59,clear sky,5.75
chuy,-33.6971,-53.4616,283.14,82,clear sky,2.37
shunyi,40.125,116.6453,301.52,60,clear sky,2.0
fare,-16.7,-151.0167,300.64,75,broken clouds,9.84
sitka,57.0531,-135.33,284.09,71,few clouds,8.23
young,-32.6833,-57.6333,285.5,80,broken clouds,3.03
hamilton,39.1834,-84.5333,297.12,83,clear sky,2.13
kloulklubed,7.0419,134.2556,300.43,83,overcast clouds,5.38
koungheul,13.9833,-14.8,302.19,42,overcast clouds,6.68
kango,0.1943,10.0951,296.0,98,overcast clouds,1.02
kota kinabalu,5.9749,116.0724,301.14,83,few clouds,1.03
castro,-24.7911,-50.0119,283.04,63,clear sky,0.61
arcachon,44.5875,-1.0519,283.18,87,few clouds,0.51
lagoa,39.05,-27.9833,290.92,91,overcast clouds,5.89
porto novo,6.4965,2.6036,299.87,83,scattered clouds,2.76
gao,16.6362,1.637,307.07,17,broken clouds,3.63
wagar,16.1525,36.2032,303.19,14,clear sky,3.68
geraldton,-28.7667,114.6,290.38,74,clear sky,2.45
bubaque,11.2833,-15.8333,298.86,78,broken clouds,6.33
mount gambier,-37.8333,140.7667,285.1,66,overcast clouds,5.66
methoni,36.8197,21.7049,292.16,67,scattered clouds,6.32
pemangkat,1.1667,108.9667,298.21,93,overcast clouds,4.85
beringovskiy,63.05,179.3167,275.66,83,overcast clouds,3.47
naifaru,5.4444,73.3657,301.76,76,few clouds,6.87
santa teresa,10.2341,-66.6631,301.16,97,overcast clouds,0.33
dunedin,-45.8742,170.5036,285.82,67,overcast clouds,8.49
taoudenni,22.6783,-3.9836,310.14,13,broken clouds,4.83
krasnyy chikoy,50.3643,108.7512,281.37,94,overcast clouds,0.69
awjilah,29.1081,21.2869,299.1,20,clear sky,2.33
adrar,20.5022,-10.0711,303.81,20,clear sky,9.69
sendafa,9.15,39.0333,287.79,43,overcast clouds,2.34
durban,-29.8579,31.0292,290.38,92,clear sky,1.79
liverpool,53.4106,-2.9779,282.49,78,scattered clouds,0.45
kelo,9.3086,15.8066,302.5,49,overcast clouds,2.54
rusape,-18.5278,32.1284,283.07,97,clear sky,1.2
yar-sale,66.8333,70.8333,271.68,74,overcast clouds,2.41
harper,4.375,-7.7169,298.82,89,light rain,2.5
eyemouth,55.8713,-2.0901,283.17,91,scattered clouds,4.49
oeiras do para,-2.0031,-49.8544,296.81,95,broken clouds,1.4
buala,-8.145,159.5921,302.97,69,light rain,4.19
sinnamary,5.3833,-52.95,297.93,90,few clouds,3.99
esperance,-33.8667,121.9,290.06,80,overcast clouds,3.49
talnakh,69.4865,88.3972,266.52,81,broken clouds,3.56
mpophomeni,-29.5682,30.1862,282.21,51,clear sky,2.68
pinerovka,51.562,43.0689,287.52,96,scattered clouds,2.6
victoria,22.2855,114.1577,304.8,75,broken clouds,1.34
gurupi,-11.7292,-49.0686,295.33,59,overcast clouds,1.72
tambura,5.6,27.4667,293.83,99,moderate rain,0.72
vila velha,-20.3297,-40.2925,297.12,81,broken clouds,2.68
ardakan,32.31,54.0175,297.36,23,clear sky,0.62
touros,-5.1989,-35.4608,297.65,87,overcast clouds,4.97
noumea,-22.2763,166.4572,297.59,99,overcast clouds,6.82
red bluff,40.1785,-122.2358,304.18,23,clear sky,4.12
dukat,62.55,155.55,271.92,91,overcast clouds,2.52
chokurdakh,70.6333,147.9167,273.05,100,overcast clouds,4.81
aripuana,-9.1667,-60.6333,296.82,72,clear sky,0.54
surgut,61.25,73.4167,280.25,59,clear sky,4.99
ixtapa,20.7,-105.2,299.94,69,few clouds,5.14
lavrentiya,65.5833,-171.0,272.94,92,scattered clouds,2.17
nova olinda do norte,-3.8881,-59.0942,297.01,96,overcast clouds,0.52
morondava,-20.2833,44.2833,294.59,54,clear sky,3.81
zhezkazgan,47.8043,67.7144,292.25,44,broken clouds,5.94
vytegra,61.0064,36.4481,290.12,87,clear sky,4.69
san jose,37.3394,-121.895,299.76,38,clear sky,1.34
presidencia roque saenz pena,-26.7852,-60.4388,290.32,71,few clouds,2.94
smidovich,48.6,133.8167,291.17,64,overcast clouds,0.74
comachuen,19.6167,-101.9,293.2,59,clear sky,1.92
bose,45.4612,8.0137,283.8,67,clear sky,3.0
khash,28.2211,61.2158,294.7,15,clear sky,0.63
pisco,-13.7,-76.2167,292.05,94,broken clouds,2.57
gulu,2.7746,32.299,290.76,96,light rain,1.8
gryazovets,58.88,40.2525,289.54,94,light rain,4.36
nome,64.5011,-165.4064,278.8,75,overcast clouds,9.26
la ronge,55.1001,-105.2842,281.29,66,overcast clouds,7.72
mareeba,-17.0,145.4333,298.42,64,scattered clouds,3.73
gorontalo,0.5412,123.0595,299.84,87,overcast clouds,1.2
haukipudas,65.1765,25.3523,283.18,98,overcast clouds,1.39
sukumo,32.9333,132.7333,291.87,98,overcast clouds,3.72
kohat,33.582,71.4493,296.19,48,few clouds,1.56
nanortalik,60.1432,-45.2371,275.69,75,few clouds,1.75
san quintin,30.4833,-115.95,290.34,77,few clouds,6.63
nador,35.174,-2.9287,290.29,76,clear sky,0.93
aksu,41.1231,80.2644,292.79,31,broken clouds,1.25
gladstone,-23.85,151.25,298.03,49,clear sky,6.69
norfolk,42.1668,-71.2495,297.12,33,clear sky,0.0
chara,56.9064,118.2631,273.58,43,broken clouds,0.31
necochea,-38.5473,-58.7368,282.06,83,overcast clouds,3.31
tarakan,3.3,117.6333,300.87,89,scattered clouds,2.57
ciempozuelos,40.1591,-3.621,291.81,55,overcast clouds,2.76
mount isa,-20.7333,139.5,297.02,27,clear sky,6.17
scottsbluff,41.8666,-103.6672,296.28,44,scattered clouds,3.58
kabinda,-6.1333,24.4833,293.74,69,broken clouds,1.54
shingu,33.7333,135.9833,294.7,99,overcast clouds,0.58
ende,-8.8432,121.6623,300.16,78,broken clouds,0.97
college,64.8569,-147.8028,290.12,30,broken clouds,5.66
flinders,-34.5833,150.8552,289.38,70,clear sky,0.89
abbeville,50.1,1.8333,284.13,92,overcast clouds,3.68
panzhihua,26.5851,101.7128,300.35,46,few clouds,0.58
kalmunai,7.4167,81.8167,300.33,79,overcast clouds,1.69
pineville,31.3224,-92.4343,297.31,85,clear sky,5.87
eirunepe,-6.6603,-69.8736,295.77,96,clear sky,0.68
henties bay,-22.116,14.2845,290.85,78,clear sky,3.38
grand-santi,4.25,-54.3833,295.49,99,overcast clouds,1.01
rafaela,-31.2503,-61.4867,288.18,49,overcast clouds,1.79
ust-maya,60.4167,134.5333,280.87,26,overcast clouds,5.42
santiago del estero,-27.7951,-64.2615,294.73,74,overcast clouds,4.64
goderich,43.7501,-81.7165,295.33,35,clear sky,1.54
umm lajj,25.0213,37.2685,300.26,70,few clouds,4.35
gat,31.61,34.7642,293.93,79,clear sky,1.66
sungaipenuh,-2.0833,101.3833,293.85,82,overcast clouds,0.76
guerrero negro,27.9769,-114.0611,290.17,75,clear sky,11.05
aklavik,68.2191,-135.0107,284.61,73,light rain,2.24
usakos,-22.0,15.6,293.54,30,clear sky,3.22
ambanja,-13.6833,48.45,294.11,84,clear sky,1.84
komsomolskiy,40.4272,71.7189,294.83,30,overcast clouds,4.12
konevo,62.1215,39.3192,289.98,93,clear sky,3.33
tasiilaq,65.6145,-37.6368,269.24,77,clear sky,0.86
tagab,34.855,69.6492,288.1,47,clear sky,1.61
santa maria,-29.6842,-53.8069,281.76,69,clear sky,1.02
chiredzi,-21.05,31.6667,287.86,88,clear sky,0.79
santiago,-33.4569,-70.6483,289.36,69,overcast clouds,1.15
isangel,-19.55,169.2667,299.21,80,broken clouds,8.26
thongwa,16.7619,96.5278,301.24,63,overcast clouds,3.41
berdigestyakh,62.0989,126.6992,278.75,28,overcast clouds,1.81
abu samrah,35.3029,37.1841,291.77,49,clear sky,2.5
codrington,-38.2667,141.9667,286.82,55,overcast clouds,6.37
bentiu,9.2333,29.8333,299.24,67,overcast clouds,1.43
alice springs,-23.7,133.8833,286.9,18,clear sky,5.82
toccoa,34.5773,-83.3324,295.7,73,clear sky,0.0
guerande,47.3291,-2.4283,285.16,84,clear sky,7.33
berezovyy,51.6667,135.7,290.38,41,overcast clouds,0.86
jalu,29.0331,21.5482,298.9,20,clear sky,1.66
yulara,-25.2406,130.9889,288.06,29,overcast clouds,5.14
klyuchi,52.2667,79.1667,289.88,70,broken clouds,4.2
puerto escondido,15.85,-97.0667,303.61,74,scattered clouds,3.6
xinzhou,38.4092,112.7333,294.36,31,overcast clouds,1.79
galesong,-5.3166,119.3661,298.16,69,broken clouds,0.75
zachary,30.6485,-91.1565,296.36,90,scattered clouds,5.63
te karaka,-38.4654,177.8679,291.05,53,clear sky,3.95
itarema,-2.9248,-39.9167,298.46,87,broken clouds,3.58
kyzyl,51.7,94.45,286.91,71,overcast clouds,1.84
kangaatsiaq,68.3065,-53.4641,274.9,85,scattered clouds,8.09
emerald,-23.5333,148.1667,294.45,46,clear sky,3.6
murgab,37.4966,61.9714,292.08,15,clear sky,1.25
almeirim,-1.5233,-52.5817,296.25,97,overcast clouds,0.39
saint anthony,45.0205,-93.218,293.61,85,overcast clouds,1.79
rio grande,-32.035,-52.0986,285.26,76,clear sky,2.63
nhulunbuy,-12.2333,136.7667,302.49,74,scattered clouds,5.14
tahe,52.3333,124.7333,284.84,38,clear sky,1.48
marsa matruh,31.3525,27.2453,290.26,51,clear sky,1.03
wang saphung,17.301,101.7685,303.01,62,few clouds,1.4
ganzhou,28.8184,115.4327,291.16,99,light rain,1.16
kirakira,-10.4544,161.9205,302.34,76,broken clouds,5.6
mandalgovi,45.7625,106.2708,290.05,27,scattered clouds,7.81
coxim,-18.5067,-54.76,296.89,33,clear sky,1.71
novikovo,51.1537,37.8879,285.32,95,clear sky,2.79
mogadishu,2.0371,45.3438,299.44,87,overcast clouds,6.86
senno,59.5336,33.9167,290.03,80,clear sky,4.58
dhidhdhoo,6.8833,73.1,301.68,76,broken clouds,7.93
le moule,16.3332,-61.3473,300.17,77,scattered clouds,5.19
hobyo,5.3505,48.5268,299.81,77,few clouds,11.13
chulman,56.8479,124.9104,275.87,31,scattered clouds,2.12
saskylakh,71.9167,114.0833,272.3,94,overcast clouds,6.43
jiuquan,39.7432,98.5174,291.21,24,clear sky,7.46
neuquen,-38.9516,-68.0591,284.09,93,clear sky,1.03
mancio lima,-7.6142,-72.8958,295.76,98,overcast clouds,0.36
shimoda,34.6667,138.95,293.8,98,overcast clouds,2.68
davidson,36.1501,-86.7833,296.31,58,overcast clouds,4.12
faya,18.3851,42.4509,292.44,29,scattered clouds,1.37
bad driburg,51.7333,9.0167,280.54,93,scattered clouds,1.82
cairns,-16.9167,145.7667,300.99,69,scattered clouds,6.69
cobija,-11.0267,-68.7692,299.35,67,overcast clouds,1.05
midyat,37.4247,41.3393,287.75,35,clear sky,1.5
san juan,-31.5375,-68.5364,290.58,60,overcast clouds,2.55
tsogni,-2.7942,10.0988,297.43,91,moderate rain,0.59
mazatlan,23.2167,-106.4167,301.13,78,few clouds,1.34
manado,1.487,124.8455,299.58,88,scattered clouds,1.82
kuusamo,65.9667,29.1833,278.17,100,overcast clouds,1.03
marystown,47.1666,-55.1483,278.26,89,overcast clouds,3.38
corralillo,22.9819,-80.5856,298.88,79,overcast clouds,7.85
tres passos,-27.4556,-53.9319,285.66,55,clear sky,1.85
srednekolymsk,67.45,153.6833,279.95,63,scattered clouds,1.57
severo-yeniseyskiy,60.3725,93.0408,273.45,60,broken clouds,2.44
xinmin,41.9908,122.8253,297.29,35,clear sky,7.19
wawa,9.9022,4.4192,300.75,68,broken clouds,3.73
korla,41.7597,86.1469,293.29,27,clear sky,0.98
khudumelapye,-23.8833,24.75,285.63,80,clear sky,3.1
gamba,-2.65,10.0,298.01,89,moderate rain,0.58
sao raimundo das mangabeiras,-7.0219,-45.4811,298.91,67,overcast clouds,1.82
daru,-9.0763,143.2092,300.42,88,overcast clouds,7.9
baymak,52.5933,58.3225,285.42,91,clear sky,7.78
tianpeng,30.9866,103.9393,294.06,72,overcast clouds,1.04
taltal,-25.4,-70.4833,289.06,81,scattered clouds,0.92
sanchor,24.7553,71.7722,298.29,68,overcast clouds,3.23
ibra,22.6906,58.5334,300.83,27,clear sky,1.11
klaksvik,62.2266,-6.589,276.66,78,overcast clouds,9.08
havre,49.5833,0.3333,283.37,94,light rain,3.75
cayenne,4.9333,-52.3333,298.2,89,clear sky,2.9
samarai,-10.6167,150.6667,300.91,78,broken clouds,4.42
ginda,30.6945,78.4932,288.71,87,overcast clouds,0.24
butia,-30.1197,-51.9622,282.6,85,clear sky,1.27
gushikawa,26.3544,127.8686,301.92,83,broken clouds,4.52
saint-louis,16.3333,-15.0,310.95,25,scattered clouds,8.06
lennoxtown,55.9726,-4.2,281.64,91,few clouds,0.39
barkly west,-28.5354,24.5215,281.75,36,clear sky,5.2
vardo,70.3705,31.1107,277.26,96,overcast clouds,4.38
sobolevo,54.4299,31.8996,286.44,98,overcast clouds,1.53
custoias,41.1053,-7.321,282.39,85,overcast clouds,1.75
ahuimanu,21.4447,-157.8378,301.99,61,clear sky,7.72
ballina,-28.8667,153.5667,292.13,77,scattered clouds,3.6
san joaquin,37.9333,-121.3011,302.88,26,clear sky,8.75
sao joao da barra,-21.6403,-41.0511,293.57,84,few clouds,4.06
alugan,12.2188,125.4808,301.37,82,overcast clouds,4.56
betzdorf,50.7833,7.8833,280.39,97,few clouds,0.82
litovko,49.2361,135.1742,290.78,69,overcast clouds,2.34
ndola,-12.9587,28.6366,280.78,68,broken clouds,0.45
zhigalovo,54.8097,105.1578,282.72,43,overcast clouds,2.17
borogontsy,62.6683,131.1683,280.26,25,broken clouds,3.08
sioux lookout,50.1001,-91.917,299.36,29,few clouds,3.6
mugan,35.9404,101.3842,285.77,27,clear sky,5.87
san policarpo,12.1791,125.5072,301.41,82,overcast clouds,4.73
beloha,-25.1667,45.05,293.48,67,broken clouds,5.04
roald,62.5833,6.1333,283.1,93,overcast clouds,4.12
parsons,37.3403,-95.2611,297.31,87,overcast clouds,3.16
pangkalanbuun,-2.6833,111.6167,296.67,99,overcast clouds,0.09
gornopravdinsk,60.05,69.9,280.61,65,few clouds,3.41
vesoul,47.5833,5.8333,282.6,97,scattered clouds,2.23
burns lake,54.2331,-125.7533,278.83,93,overcast clouds,1.78
shellbrook,53.2168,-106.4011,296.72,37,overcast clouds,5.51
medicine hat,50.0501,-110.6683,292.39,17,few clouds,5.36
ubud,-8.5098,115.2654,297.77,75,clear sky,2.11
bud,39.447,-86.1758,297.2,89,overcast clouds,3.46
beira,-19.8436,34.8389,295.43,85,light rain,4.29
villaviciosa,43.4813,-5.4357,285.05,94,scattered clouds,2.39
mujiayingzi,42.1167,118.7833,297.43,22,clear sky,4.38
tigil,57.8,158.6667,276.57,96,light rain,2.58
dabakala,8.3667,-4.4333,297.9,85,scattered clouds,2.74
hami,42.8,93.45,294.61,27,clear sky,1.77
huntingdon,52.3305,-0.1865,283.59,89,overcast clouds,0.45
portoferraio,42.8115,10.3146,290.91,80,overcast clouds,5.54
usak,38.5,29.4167,284.56,63,clear sky,0.7
sistranda,63.7256,8.834,281.98,85,overcast clouds,7.41
savyntsi,49.4026,37.0627,285.67,94,broken clouds,3.09
gyenesdias,46.7706,17.2866,285.79,89,broken clouds,1.74
mehamn,71.0357,27.8492,282.4,77,few clouds,7.8
trenggalek,-8.05,111.7167,298.83,86,overcast clouds,1.71
pangnirtung,66.1451,-65.7125,269.15,86,overcast clouds,7.2
owando,-0.4819,15.8999,293.94,97,overcast clouds,0.69
zhigansk,66.7697,123.3711,276.68,39,overcast clouds,2.32
valdivia,-39.8142,-73.2459,286.2,93,overcast clouds,0.98
lerwick,60.1545,-1.1494,279.15,82,overcast clouds,6.66
khani,41.9563,42.9566,287.91,60,broken clouds,3.7
isla vista,34.4133,-119.861,303.9,61,clear sky,2.57
ulcinj,41.9294,19.2244,286.27,71,broken clouds,2.76
ilulissat,69.2167,-51.1,278.16,56,few clouds,0.51
pacific grove,36.6177,-121.9166,297.37,69,clear sky,3.58
koumac,-20.5667,164.2833,297.82,69,overcast clouds,3.22
onoda,34.0014,131.1836,293.87,75,broken clouds,3.56
oussouye,12.485,-16.5469,296.2,68,overcast clouds,2.53
takoradi,4.8845,-1.7554,299.34,85,few clouds,1.45
kalevala,65.2,31.1667,285.17,97,heavy intensity rain,1.72
agde,43.3108,3.4758,287.17,63,broken clouds,4.63
seydi,39.4816,62.9137,298.43,9,clear sky,2.59
margate,51.3813,1.3862,284.38,82,broken clouds,0.89
elizabeth city,36.2946,-76.2511,293.26,59,clear sky,3.6
kaura namoda,12.5898,6.5779,303.7,38,clear sky,5.76
port hardy,50.6996,-127.4199,283.15,87,light rain,0.0
coihaique,-45.5752,-72.0662,276.12,100,broken clouds,0.0
oytal,42.9057,73.2697,290.79,45,broken clouds,2.58
tari,12.4086,4.4914,305.37,40,broken clouds,2.78
sarandi,-23.4436,-51.8739,290.9,54,clear sky,1.28
piacabucu,-10.4056,-36.4344,297.21,84,scattered clouds,2.48
llanes,43.4198,-4.7549,284.97,85,overcast clouds,4.19
opuwo,-18.0607,13.84,288.76,36,clear sky,1.26
caibarien,22.5206,-79.4669,298.77,79,overcast clouds,8.22
muroto,33.2833,134.15,294.17,98,overcast clouds,3.18
lishui,28.4604,119.9103,294.88,93,light rain,1.24
sao felix do xingu,-6.6447,-51.995,295.59,96,overcast clouds,0.72
muros,42.7762,-9.0603,285.92,85,scattered clouds,2.92
mao,39.8885,4.2658,290.46,82,clear sky,1.54
ishigaki,24.3448,124.1572,302.22,89,broken clouds,5.66
ahipara,-35.1667,173.1667,291.1,62,clear sky,5.9
asyut,27.181,31.1837,297.25,33,clear sky,5.47
santana,-0.0583,-51.1817,300.25,93,clear sky,2.09
chernyshevskiy,63.0128,112.4714,273.61,46,overcast clouds,1.88
fort wellington,6.4,-57.6,298.62,83,clear sky,4.22
ngunguru,-35.6167,174.5,292.68,57,clear sky,6.26
katangli,51.7102,143.2326,282.94,76,overcast clouds,5.2
oum hadjer,13.2954,19.6966,303.48,12,clear sky,2.54
rovaniemi,66.5,25.7167,280.82,93,clear sky,2.06
monrovia,6.3005,-10.7969,299.62,84,overcast clouds,3.08
fushan,37.4958,121.2581,297.5,42,clear sky,3.47
hambantota,6.1241,81.1185,298.34,83,scattered clouds,5.31
montepuez,-13.1256,38.9997,290.57,83,scattered clouds,4.13
miramar,25.9873,-80.2323,299.27,71,few clouds,8.23
manzhouli,49.6,117.4333,288.55,41,overcast clouds,4.17
uruguaiana,-29.7547,-57.0883,288.11,67,clear sky,2.06
mutis,6.2262,-77.4044,299.08,88,overcast clouds,2.17
bamako,12.65,-8.0,304.38,26,few clouds,0.4
winnemucca,40.973,-117.7357,299.32,20,broken clouds,7.04
